<?xml version="1.0" encoding="UTF-8"?>
<kml xmlns="http://earth.google.com/kml/2.2">
<Document>
  <Placemark>
    <name>Grand Union Canal</name>
    <description><![CDATA[This waterway opened in 1805 and joins the Thames at Brentford (see Capital Ring section 7). It runs up to Birmingham in the opposite direction.]]></description>
    <styleUrl>#style3</styleUrl>
    <Point>
      <coordinates>-0.419750,51.504670,0.000000</coordinates>
    </Point>
  </Placemark>
  <Placemark>
    <name>Stockley Park</name>
    <description><![CDATA[This large business park opened in the 1980s. Workers are rewarded for their commute with some pleasant surroundings to explore in their lunch break.]]></description>
    <styleUrl>#style6</styleUrl>
    <Point>
      <coordinates>-0.449088,51.514498,0.000000</coordinates>
    </Point>
  </Placemark>
  <Placemark>
    <name>Horton Bridge 193</name>
    <description><![CDATA[Bridges on the Grand Union Canal are numbered in ascending order from Birmingham, so Horton Bridge is the 193rd bridge over the canal from Birmingham.]]></description>
    <styleUrl>#style7</styleUrl>
    <Point>
      <coordinates>-0.464677,51.509580,0.000000</coordinates>
    </Point>
  </Placemark>
  <Placemark>
    <name>Coal Tax Marker</name>
    <description><![CDATA[This small canal-side obelisk warned canal users they would shortly need to pay tax on any coal being brought in to London. The tax was introduced in 1667 to assist the rebuild of London after The Great Fire.]]></description>
    <styleUrl>#style8</styleUrl>
    <Point>
      <coordinates>-0.490318,51.515827,0.000000</coordinates>
    </Point>
  </Placemark>
  <Placemark>
    <name>Little Britain Lake</name>
    <description><![CDATA[This pretty lake earned its name because, if you squint slightly, it is a similar shape to mainland Britain.]]></description>
    <styleUrl>#style9</styleUrl>
    <Point>
      <coordinates>-0.489664,51.520547,0.000000</coordinates>
    </Point>
  </Placemark>
</Document>
</kml>